{"meta":{"page":0,"limit":9999,"total":12},"data":
[{"name":"Darth Vader","pickupContact":{"name":"19 Stuart St","phone":""},"deliveryContact":{"name":"Boston","phone":""},"pickupLocation":{"location":{"lat":42.3511117,"lng":-71.0634137},"country":"USA","zipcode":"","state":"MA","city":"Boston","addressLine2":"","addressLine1":"19 Stuart St","name":"Boston","id":"209b6340-7733-11e5-a083-8f4cd95f780b"},"deliveryLocation":{"location":{"lat":42.3511117,"lng":-71.0634137},"country":"USA","zipcode":"","state":"MA","city":"Boston","addressLine2":"","addressLine1":"19 Stuart St","name":"Boston","id":"209b6340-7733-11e5-a083-8f4cd95f780b"},"props":{"priority":2,"size":600000,
        "weight":12,"deliveryServiceTime":"PT0H10M0S","pickupTime":"2015-10-19T05:00:00.000z","pickupWindow":[{"start":"2015-10-19T05:00:00.000z","end":"2015-10-20T03:00:00.000z"}],"deliveryTime":"2015-10-19T05:00:00.000z","deliveryWindow":[{"start":"2015-10-19T05:00:00.000z","end":"2015-10-20T03:00:00.000z"}]},"status":0,"id":"209bff80-7733-11e5-a083-8f4cd95f780b"},
   {"name":"Darth Vader","pickupContact":{"name":"231 Belmont St","phone":""},"deliveryContact":{"name":"Belmont","phone":""},"pickupLocation":{"location":{"lat":42.37695069999999,"lng":-71.16107219999999},"country":"USA","zipcode":"","state":"MA","city":"Belmont","addressLine2":"","addressLine1":"231 Belmont St","name":"Belmont","id":"2069f300-7733-11e5-a083-8f4cd95f780b"},"deliveryLocation":{"location":{"lat":42.37695069999999,"lng":-71.16107219999999},"country":"USA","zipcode":"","state":"MA","city":"Belmont","addressLine2":"","addressLine1":"231 Belmont St","name":"Belmont","id":"2069f300-7733-11e5-a083-8f4cd95f780b"},"props":{"priority":2,"size":600000,
       "weight":11,"deliveryServiceTime":"PT0H10M0S","pickupTime":"2015-10-19T05:00:00.000z","pickupWindow":[{"start":"2015-10-19T05:00:00.000z","end":"2015-10-20T03:00:00.000z"}],"deliveryTime":"2015-10-19T05:00:00.000z","deliveryWindow":[{"start":"2015-10-19T05:00:00.000z","end":"2015-10-20T03:00:00.000z"}]},"status":0,"id":"206add60-7733-11e5-a083-8f4cd95f780b"},
   {"name":"Darth Vader","pickupContact":{"name":"1657 Cambridge St","phone":""},"deliveryContact":{"name":"Cambridge","phone":""},"pickupLocation":{"location":{"lat":42.3751759,"lng":-71.11037499999999},"country":"USA","zipcode":"","state":"MA","city":"Cambridge","addressLine2":"","addressLine1":"1657 Cambridge St","name":"Cambridge","id":"20479df0-7733-11e5-a083-8f4cd95f780b"},"deliveryLocation":{"location":{"lat":42.3751759,"lng":-71.11037499999999},"country":"USA","zipcode":"","state":"MA","city":"Cambridge","addressLine2":"","addressLine1":"1657 Cambridge St","name":"Cambridge","id":"20479df0-7733-11e5-a083-8f4cd95f780b"},"props":{"priority":2,"size":600000,
        "weight":10,"deliveryServiceTime":"PT0H10M0S","pickupTime":"2015-10-19T05:00:00.000z","pickupWindow":[{"start":"2015-10-19T05:00:00.000z","end":"2015-10-20T03:00:00.000z"}],"deliveryTime":"2015-10-19T05:00:00.000z","deliveryWindow":[{"start":"2015-10-19T05:00:00.000z","end":"2015-10-20T03:00:00.000z"}]},"status":0,"id":"20486140-7733-11e5-a083-8f4cd95f780b"},
   {"name":"Darth Vader","pickupContact":{"name":"365 Belmont St","phone":""},"deliveryContact":{"name":"Belmont","phone":""},"pickupLocation":{"location":{"lat":42.3776933,"lng":-71.1671321},"country":"USA","zipcode":"","state":"MA","city":"Belmont","addressLine2":"","addressLine1":"365 Belmont St","name":"Belmont","id":"20285620-7733-11e5-a083-8f4cd95f780b"},"deliveryLocation":{"location":{"lat":42.3776933,"lng":-71.1671321},"country":"USA","zipcode":"","state":"MA","city":"Belmont","addressLine2":"","addressLine1":"365 Belmont St","name":"Belmont","id":"20285620-7733-11e5-a083-8f4cd95f780b"},"props":{"priority":2,"size":600000,
         "weight":9,"deliveryServiceTime":"PT0H10M0S","pickupTime":"2015-10-19T05:00:00.000z","pickupWindow":[{"start":"2015-10-19T05:00:00.000z","end":"2015-10-20T03:00:00.000z"}],"deliveryTime":"2015-10-19T05:00:00.000z","deliveryWindow":[{"start":"2015-10-19T05:00:00.000z","end":"2015-10-20T03:00:00.000z"}]},"status":0,"id":"2028a440-7733-11e5-a083-8f4cd95f780b"},
   {"name":"Darth Vader","pickupContact":{"name":"175 Tremont St","phone":""},"deliveryContact":{"name":"Boston","phone":""},"pickupLocation":{"location":{"lat":42.3531263,"lng":-71.0639154},"country":"USA","zipcode":"","state":"MA","city":"Boston","addressLine2":"","addressLine1":"175 Tremont St","name":"Boston","id":"20069d50-7733-11e5-a083-8f4cd95f780b"},"deliveryLocation":{"location":{"lat":42.3531263,"lng":-71.0639154},"country":"USA","zipcode":"","state":"MA","city":"Boston","addressLine2":"","addressLine1":"175 Tremont St","name":"Boston","id":"20069d50-7733-11e5-a083-8f4cd95f780b"},"props":{"priority":2,"size":600000,
         "weight":8,"deliveryServiceTime":"PT0H10M0S","pickupTime":"2015-10-19T05:00:00.000z","pickupWindow":[{"start":"2015-10-19T05:00:00.000z","end":"2015-10-20T03:00:00.000z"}],"deliveryTime":"2015-10-19T05:00:00.000z","deliveryWindow":[{"start":"2015-10-19T05:00:00.000z","end":"2015-10-20T03:00:00.000z"}]},"status":0,"id":"200823f0-7733-11e5-a083-8f4cd95f780b"},
   {"name":"Darth Vader","pickupContact":{"name":"4 Cambridge Center","phone":""},"deliveryContact":{"name":"Cambridge","phone":""},"pickupLocation":{"location":{"lat":42.36354499999999,"lng":-71.0872863},"country":"USA","zipcode":"","state":"MA","city":"Cambridge","addressLine2":"","addressLine1":"4 Cambridge Center","name":"Cambridge","id":"1fe18920-7733-11e5-a083-8f4cd95f780b"},"deliveryLocation":{"location":{"lat":42.36354499999999,"lng":-71.0872863},"country":"USA","zipcode":"","state":"MA","city":"Cambridge","addressLine2":"","addressLine1":"4 Cambridge Center","name":"Cambridge","id":"1fe18920-7733-11e5-a083-8f4cd95f780b"},"props":{"priority":2,"size":600000,
         "weight":7,"deliveryServiceTime":"PT0H10M0S","pickupTime":"2015-10-19T05:00:00.000z","pickupWindow":[{"start":"2015-10-19T05:00:00.000z","end":"2015-10-20T03:00:00.000z"}],"deliveryTime":"2015-10-19T05:00:00.000z","deliveryWindow":[{"start":"2015-10-19T05:00:00.000z","end":"2015-10-20T03:00:00.000z"}]},"status":0,"id":"1fe24c70-7733-11e5-a083-8f4cd95f780b"},
   {"name":"Darth Vader","pickupContact":{"name":"179 Lincoln St","phone":""},"deliveryContact":{"name":"Boston","phone":""},"pickupLocation":{"location":{"lat":42.3504798,"lng":-71.0589337},"country":"USA","zipcode":"","state":"MA","city":"Boston","addressLine2":"","addressLine1":"179 Lincoln St","name":"Boston","id":"1fc1cc20-7733-11e5-a083-8f4cd95f780b"},"deliveryLocation":{"location":{"lat":42.3504798,"lng":-71.0589337},"country":"USA","zipcode":"","state":"MA","city":"Boston","addressLine2":"","addressLine1":"179 Lincoln St","name":"Boston","id":"1fc1cc20-7733-11e5-a083-8f4cd95f780b"},"props":{"priority":2,"size":600000,
          "weight":6,"deliveryServiceTime":"PT0H10M0S","pickupTime":"2015-10-19T05:00:00.000z","pickupWindow":[{"start":"2015-10-19T05:00:00.000z","end":"2015-10-20T03:00:00.000z"}],"deliveryTime":"2015-10-19T05:00:00.000z","deliveryWindow":[{"start":"2015-10-19T05:00:00.000z","end":"2015-10-20T03:00:00.000z"}]},"status":0,"id":"1fc2b680-7733-11e5-a083-8f4cd95f780b"},
   {"name":"Darth Vader","pickupContact":{"name":"2 Green St","phone":""},"deliveryContact":{"name":"Cambridge","phone":""},"pickupLocation":{"location":{"lat":42.3613493,"lng":-71.0984893},"country":"USA","zipcode":"","state":"MA","city":"Cambridge","addressLine2":"","addressLine1":"2 Green St","name":"Cambridge","id":"1f9ba680-7733-11e5-a083-8f4cd95f780b"},"deliveryLocation":{"location":{"lat":42.3613493,"lng":-71.0984893},"country":"USA","zipcode":"","state":"MA","city":"Cambridge","addressLine2":"","addressLine1":"2 Green St","name":"Cambridge","id":"1f9ba680-7733-11e5-a083-8f4cd95f780b"},"props":{"priority":2,"size":600000,
          "weight":5,"deliveryServiceTime":"PT0H10M0S","pickupTime":"2015-10-19T05:00:00.000z","pickupWindow":[{"start":"2015-10-19T05:00:00.000z","end":"2015-10-20T03:00:00.000z"}],"deliveryTime":"2015-10-19T05:00:00.000z","deliveryWindow":[{"start":"2015-10-19T05:00:00.000z","end":"2015-10-20T03:00:00.000z"}]},"status":0,"id":"1f9c42c0-7733-11e5-a083-8f4cd95f780b"},
   {"name":"Darth Vader","pickupContact":{"name":"88 Fairview Ave","phone":""},"deliveryContact":{"name":"Belmont","phone":""},"pickupLocation":{"location":{"lat":42.3790045,"lng":-71.162374},"country":"USA","zipcode":"","state":"MA","city":"Belmont","addressLine2":"","addressLine1":"88 Fairview Ave","name":"Belmont","id":"1f7cacd0-7733-11e5-a083-8f4cd95f780b"},"deliveryLocation":{"location":{"lat":42.3790045,"lng":-71.162374},"country":"USA","zipcode":"","state":"MA","city":"Belmont","addressLine2":"","addressLine1":"88 Fairview Ave","name":"Belmont","id":"1f7cacd0-7733-11e5-a083-8f4cd95f780b"},"props":{"priority":2,"size":600000,
          "weight":1,"deliveryServiceTime":"PT0H10M0S","pickupTime":"2015-10-19T05:00:00.000z","pickupWindow":[{"start":"2015-10-19T05:00:00.000z","end":"2015-10-20T03:00:00.000z"}],"deliveryTime":"2015-10-19T05:00:00.000z","deliveryWindow":[{"start":"2015-10-19T05:00:00.000z","end":"2015-10-20T03:00:00.000z"}]},"status":0,"id":"1f7d7020-7733-11e5-a083-8f4cd95f780b"},
   {"name":"Darth Vader","pickupContact":{"name":"288 Harvard St","phone":""},"deliveryContact":{"name":"Cambridge","phone":""},"pickupLocation":{"location":{"lat":42.3692664,"lng":-71.1049398},"country":"USA","zipcode":"","state":"MA","city":"Cambridge","addressLine2":"","addressLine1":"288 Harvard St","name":"Cambridge","id":"1f5d8c10-7733-11e5-a083-8f4cd95f780b"},"deliveryLocation":{"location":{"lat":42.3692664,"lng":-71.1049398},"country":"USA","zipcode":"","state":"MA","city":"Cambridge","addressLine2":"","addressLine1":"288 Harvard St","name":"Cambridge","id":"1f5d8c10-7733-11e5-a083-8f4cd95f780b"},"props":{"priority":2,"size":600000,
          "weight":2,"deliveryServiceTime":"PT0H10M0S","pickupTime":"2015-10-19T05:00:00.000z","pickupWindow":[{"start":"2015-10-19T05:00:00.000z","end":"2015-10-20T03:00:00.000z"}],"deliveryTime":"2015-10-19T05:00:00.000z","deliveryWindow":[{"start":"2015-10-19T05:00:00.000z","end":"2015-10-20T03:00:00.000z"}]},"status":0,"id":"1f5e2850-7733-11e5-a083-8f4cd95f780b"},
   {"name":"Darth Vader","pickupContact":{"name":"265 Belmont St","phone":""},"deliveryContact":{"name":"Belmont","phone":""},"pickupLocation":{"location":{"lat":42.3770203,"lng":-71.1625803},"country":"USA","zipcode":"","state":"MA","city":"Belmont","addressLine2":"","addressLine1":"265 Belmont St","name":"Belmont","id":"1f3dcf10-7733-11e5-a083-8f4cd95f780b"},"deliveryLocation":{"location":{"lat":42.3770203,"lng":-71.1625803},"country":"USA","zipcode":"","state":"MA","city":"Belmont","addressLine2":"","addressLine1":"265 Belmont St","name":"Belmont","id":"1f3dcf10-7733-11e5-a083-8f4cd95f780b"},"props":{"priority":2,"size":600000,
          "weight":3,"deliveryServiceTime":"PT0H10M0S","pickupTime":"2015-10-19T05:00:00.000z","pickupWindow":[{"start":"2015-10-19T05:00:00.000z","end":"2015-10-20T03:00:00.000z"}],"deliveryTime":"2015-10-19T05:00:00.000z","deliveryWindow":[{"start":"2015-10-19T05:00:00.000z","end":"2015-10-20T03:00:00.000z"}]},"status":0,"id":"1f3e6b50-7733-11e5-a083-8f4cd95f780b"},
   {"name":"Darth Vader","pickupContact":{"name":"292 Main St","phone":""},"deliveryContact":{"name":"Cambridge","phone":""},"pickupLocation":{"location":{"lat":42.362153,"lng":-71.08588},"country":"USA","zipcode":"","state":"MA","city":"Cambridge","addressLine2":"","addressLine1":"292 Main St","name":"Cambridge","id":"1f1b7a00-7733-11e5-a083-8f4cd95f780b"},"deliveryLocation":{"location":{"lat":42.362153,"lng":-71.08588},"country":"USA","zipcode":"","state":"MA","city":"Cambridge","addressLine2":"","addressLine1":"292 Main St","name":"Cambridge","id":"1f1b7a00-7733-11e5-a083-8f4cd95f780b"},"props":{"priority":2,"size":600000,
          "weight":4,"deliveryServiceTime":"PT0H10M0S","pickupTime":"2015-10-19T05:00:00.000z","pickupWindow":[{"start":"2015-10-19T05:00:00.000z","end":"2015-10-20T03:00:00.000z"}],"deliveryTime":"2015-10-19T05:00:00.000z","deliveryWindow":[{"start":"2015-10-19T05:00:00.000z","end":"2015-10-20T03:00:00.000z"}]},"status":0,"id":"1f1cb280-7733-11e5-a083-8f4cd95f780b"}]}
