{"meta":{"page":0,"limit":1000,"total":16},"data":[{"type":"oneway","contact":{"phone":"","name":"1835 COLUMBIA ST"},"task":"615b1760-76eb-11e5-8a46-bdeb028bea46","location":{"location":{"lat":32.7244464,"lng":-117.1672568},"country":"USA","zipcode":"92101-0000","state":"CA","city":"SAN DIEGO","addressLine2":"","addressLine1":"1835 COLUMBIA ST","name":"THE GLASS DOOR","id":"615746d0-76eb-11e5-8a46-bdeb028bea46"},"driver":"53b1aad0-7672-11e5-90d4-3d0281f899fa","props":{"serviceTime":"PT0H13M44S","priority":1,"time":"2015-10-20T12:30:00.000z","window":[{"end":"2015-10-21T03:00:00.000z","start":"2015-10-20T12:30:00.000z"}]},"completedAt":"2015-10-20T17:54:38.855Z","id":"7ca75de0-773a-11e5-8a46-bdeb028bea46","status":2,"delay":0,"eta":"P0D","arrivalTime":"2015-10-20T17:54:38.855Z"},{"type":"oneway","contact":{"phone":"","name":"1670 KETTNER BLVD"},"task":"61877e90-76eb-11e5-8a46-bdeb028bea46","location":{"location":{"lat":32.722479,"lng":-117.169599},"country":"USA","zipcode":"92101-0000","state":"CA","city":"SAN DIEGO","addressLine2":"","addressLine1":"1670 KETTNER BLVD","name":"7-ELEVEN #33458-2131","id":"618052a0-76eb-11e5-8a46-bdeb028bea46"},"driver":"53b1aad0-7672-11e5-90d4-3d0281f899fa","props":{"serviceTime":"PT0H5M51S","priority":1,"time":"2015-10-20T11:00:00.000z","window":[{"end":"2015-10-20T20:00:00.000z","start":"2015-10-20T11:00:00.000z"}]},"completedAt":"2015-10-20T17:54:40.145Z","id":"7c732e80-773a-11e5-8a46-bdeb028bea46","status":2,"delay":0,"eta":"P0D","arrivalTime":"2015-10-20T17:54:40.145Z"},{"type":"oneway","contact":{"phone":"","name":"1675 INDIA ST"},"task":"61bb5fd0-76eb-11e5-8a46-bdeb028bea46","location":{"location":{"lat":32.72286450000001,"lng":-117.1682699},"country":"USA","zipcode":"92101-0000","state":"CA","city":"SAN DIEGO","addressLine2":"","addressLine1":"1675 INDIA ST","name":"PRINCESS PUB & GRILLE INC","id":"61b03c40-76eb-11e5-8a46-bdeb028bea46"},"driver":"53b1aad0-7672-11e5-90d4-3d0281f899fa","props":{"serviceTime":"PT0H23M42S","priority":1,"time":"2015-10-20T16:00:00.000z","window":[{"end":"2015-10-20T18:00:00.000z","start":"2015-10-20T16:00:00.000z"}]},"completedAt":"2015-10-20T18:23:29.774Z","id":"7c35d760-773a-11e5-8a46-bdeb028bea46","status":2,"delay":0,"eta":"P0D","arrivalTime":"2015-10-20T18:23:29.774Z"},{"type":"oneway","contact":{"phone":"","name":"1747 INDIA ST"},"task":"61e778e0-76eb-11e5-8a46-bdeb028bea46","location":{"location":{"lat":32.7237804,"lng":-117.1681051},"country":"USA","zipcode":"92101-0000","state":"CA","city":"SAN DIEGO","addressLine2":"","addressLine1":"1747 INDIA ST","name":"FILIPPIES PIZZA","id":"61e35a30-76eb-11e5-8a46-bdeb028bea46"},"driver":"53b1aad0-7672-11e5-90d4-3d0281f899fa","props":{"serviceTime":"PT0H10M52S","priority":1,"time":"2015-10-20T15:00:00.000z","window":[{"end":"2015-10-20T18:00:00.000z","start":"2015-10-20T15:00:00.000z"}]},"completedAt":"2015-10-20T17:24:54.161Z","id":"7c06d820-773a-11e5-8a46-bdeb028bea46","status":2,"delay":0,"eta":"P0D","arrivalTime":"2015-10-20T17:24:54.161Z"},{"type":"oneway","contact":{"phone":"","name":"2400 INDIA ST"},"task":"621391f0-76eb-11e5-8a46-bdeb028bea46","location":{"location":{"lat":32.729407,"lng":-117.171048},"country":"USA","zipcode":"92101-0000","state":"CA","city":"SAN DIEGO","addressLine2":"","addressLine1":"2400 INDIA ST","name":"EL CAMINO","id":"620f9a50-76eb-11e5-8a46-bdeb028bea46"},"driver":"53b1aad0-7672-11e5-90d4-3d0281f899fa","props":{"serviceTime":"PT0H7M45S","priority":1,"time":"2015-10-20T14:00:00.000z","window":[{"end":"2015-10-20T19:00:00.000z","start":"2015-10-20T14:00:00.000z"}]},"completedAt":"2015-10-20T17:38:21.475Z","id":"7bb77fa0-773a-11e5-8a46-bdeb028bea46","status":2,"delay":0,"eta":"P0D","arrivalTime":"2015-10-20T17:38:21.475Z"},{"type":"oneway","contact":{"phone":"","name":"2825 5TH AVE"},"task":"6241cde0-76eb-11e5-8a46-bdeb028bea46","location":{"location":{"lat":32.734787,"lng":-117.160019},"country":"USA","zipcode":"92103-0000","state":"CA","city":"SAN DIEGO","addressLine2":"","addressLine1":"2825 5TH AVE","name":"THE ABBEY","id":"623e2460-76eb-11e5-8a46-bdeb028bea46"},"driver":"53b1aad0-7672-11e5-90d4-3d0281f899fa","props":{"serviceTime":"PT0H34M2S","priority":1,"time":"2015-10-20T15:00:00.000z","window":[{"end":"2015-10-20T20:00:00.000z","start":"2015-10-20T15:00:00.000z"}]},"completedAt":"2015-10-20T19:09:07.790Z","id":"7b420180-773a-11e5-8a46-bdeb028bea46","status":2,"delay":0,"eta":"P0D","arrivalTime":"2015-10-20T19:09:07.790Z"},{"type":"oneway","contact":{"phone":"","name":"3745 PARK BLVD"},"task":"62742880-76eb-11e5-8a46-bdeb028bea46","location":{"location":{"lat":32.7457196,"lng":-117.1469168},"country":"USA","zipcode":"92103-0000","state":"CA","city":"SAN DIEGO","addressLine2":"","addressLine1":"3745 PARK BLVD","name":"COTTAGE DRIVE IN LIQUOR","id":"626cae70-76eb-11e5-8a46-bdeb028bea46"},"driver":"53b1aad0-7672-11e5-90d4-3d0281f899fa","props":{"serviceTime":"PT0H46M31S","priority":1,"time":"2015-10-20T15:00:00.000z","window":[{"end":"2015-10-20T19:00:00.000z","start":"2015-10-20T15:00:00.000z"}]},"completedAt":"2015-10-20T17:02:37.246Z","id":"7b183260-773a-11e5-8a46-bdeb028bea46","status":2,"delay":0,"eta":"P0D","arrivalTime":"2015-10-20T17:02:37.246Z"},{"type":"oneway","contact":{"phone":"","name":"1602 UNIVERSITY AVE"},"task":"62ae2440-76eb-11e5-8a46-bdeb028bea46","location":{"location":{"lat":32.7487266,"lng":-117.1492774},"country":"USA","zipcode":"92103-0000","state":"CA","city":"SAN DIEGO","addressLine2":"","addressLine1":"1602 UNIVERSITY AVE","name":"7-ELEVEN #20551-2111","id":"62a6f850-76eb-11e5-8a46-bdeb028bea46"},"driver":"53b1aad0-7672-11e5-90d4-3d0281f899fa","props":{"serviceTime":"PT0H24M10S","priority":1,"time":"2015-10-20T12:00:00.000z","window":[{"end":"2015-10-20T23:00:00.000z","start":"2015-10-20T12:00:00.000z"}]},"id":"7afc45f0-773a-11e5-8a46-bdeb028bea46","eta":"P0D","status":0,"delay":0,"arrivalTime":"2015-10-20T22:03:34.112Z","onTime":true},{"type":"oneway","contact":{"phone":"","name":"3848 CENTRE ST"},"task":"62e9cdb0-76eb-11e5-8a46-bdeb028bea46","location":{"location":{"lat":32.7481258,"lng":-117.1485371},"country":"USA","zipcode":"92103-0000","state":"CA","city":"SAN DIEGO","addressLine2":"","addressLine1":"3848 CENTRE ST","name":"EAGLES LODGE SAN DIEGO","id":"62deaa20-76eb-11e5-8a46-bdeb028bea46"},"driver":"53b1aad0-7672-11e5-90d4-3d0281f899fa","props":{"serviceTime":"PT0H9M8S","priority":1,"time":"2015-10-20T17:30:00.000z","window":[{"end":"2015-10-20T22:00:00.000z","start":"2015-10-20T17:30:00.000z"}]},"completedAt":"2015-10-20T20:09:05.361Z","id":"7ae67400-773a-11e5-8a46-bdeb028bea46","status":2,"delay":0,"eta":"P0D","arrivalTime":"2015-10-20T20:09:05.361Z"},{"type":"oneway","contact":{"phone":"","name":"3824 PARK BLVD"},"task":"631d39c0-76eb-11e5-8a46-bdeb028bea46","location":{"location":{"lat":32.7482551,"lng":-117.1466484},"country":"USA","zipcode":"92103-0000","state":"CA","city":"SAN DIEGO","addressLine2":"","addressLine1":"3824 PARK BLVD","name":"SUNSHINE MARKET & LIQUOR","id":"6312b270-76eb-11e5-8a46-bdeb028bea46"},"driver":"53b1aad0-7672-11e5-90d4-3d0281f899fa","props":{"serviceTime":"PT0H14M41S","priority":1,"time":"2015-10-20T15:00:00.000z","window":[{"end":"2015-10-21T00:00:00.000z","start":"2015-10-20T15:00:00.000z"}]},"completedAt":"2015-10-20T16:04:24.846Z","id":"7ad92d90-773a-11e5-8a46-bdeb028bea46","status":2,"delay":0,"eta":"P0D","arrivalTime":"2015-10-20T16:04:24.846Z"},{"type":"oneway","contact":{"phone":"","name":"2306 EL CAJON BLVD"},"task":"63516920-76eb-11e5-8a46-bdeb028bea46","location":{"location":{"lat":32.7555822,"lng":-117.1398267},"country":"USA","zipcode":"92104-0000","state":"CA","city":"SAN DIEGO","addressLine2":"","addressLine1":"2306 EL CAJON BLVD","name":"GILLYS BAR","id":"634979e0-76eb-11e5-8a46-bdeb028bea46"},"driver":"53b1aad0-7672-11e5-90d4-3d0281f899fa","props":{"serviceTime":"PT0H12M25S","priority":1,"time":"2015-10-20T13:00:00.000z","window":[{"end":"2015-10-21T03:00:00.000z","start":"2015-10-20T13:00:00.000z"}]},"completedAt":"2015-10-20T20:44:50.694Z","id":"7ac53060-773a-11e5-8a46-bdeb028bea46","status":2,"delay":0,"eta":"P0D","arrivalTime":"2015-10-20T20:44:50.694Z"},{"type":"oneway","contact":{"phone":"","name":"2251 EL CAJON BLVD"},"task":"63785210-76eb-11e5-8a46-bdeb028bea46","location":{"location":{"lat":32.755117,"lng":-117.1404218},"country":"USA","zipcode":"92104-0000","state":"CA","city":"SAN DIEGO","addressLine2":"","addressLine1":"2251 EL CAJON BLVD","name":"RED FOX STEAK & CHOP","id":"63745a70-76eb-11e5-8a46-bdeb028bea46"},"driver":"53b1aad0-7672-11e5-90d4-3d0281f899fa","props":{"serviceTime":"PT0H17M4S","priority":1,"time":"2015-10-20T16:30:00.000z","window":[{"end":"2015-10-20T22:00:00.000z","start":"2015-10-20T16:30:00.000z"}]},"completedAt":"2015-10-20T20:29:16.729Z","id":"7aadb0c0-773a-11e5-8a46-bdeb028bea46","status":2,"delay":0,"eta":"P0D","arrivalTime":"2015-10-20T20:29:16.729Z"},{"type":"oneway","contact":{"phone":"","name":"1279 UNIVERSITY AVE"},"task":"63a7ed90-76eb-11e5-8a46-bdeb028bea46","location":{"location":{"lat":32.7481429,"lng":-117.1517284},"country":"USA","zipcode":"92103-0000","state":"CA","city":"SAN DIEGO","addressLine2":"","addressLine1":"1279 UNIVERSITY AVE","name":"SERVALL MARKET","id":"63a09a90-76eb-11e5-8a46-bdeb028bea46"},"driver":"53b1aad0-7672-11e5-90d4-3d0281f899fa","props":{"serviceTime":"PT0H15M39S","priority":1,"time":"2015-10-20T17:00:00.000z","window":[{"end":"2015-10-20T20:00:00.000z","start":"2015-10-20T17:00:00.000z"}]},"completedAt":"2015-10-20T19:43:59.937Z","id":"7a9e9590-773a-11e5-8a46-bdeb028bea46","status":2,"delay":0,"eta":"P0D","arrivalTime":"2015-10-20T19:43:59.937Z"},{"type":"oneway","contact":{"phone":"","name":"1017 UNIVERSITY AVE"},"task":"63e12600-76eb-11e5-8a46-bdeb028bea46","location":{"location":{"lat":32.7481717,"lng":-117.1547702},"country":"USA","zipcode":"92103-0000","state":"CA","city":"SAN DIEGO","addressLine2":"","addressLine1":"1017 UNIVERSITY AVE","name":"FLICKS","id":"63dd7c80-76eb-11e5-8a46-bdeb028bea46"},"driver":"53b1aad0-7672-11e5-90d4-3d0281f899fa","props":{"serviceTime":"PT0H37M55S","priority":1,"time":"2015-10-20T20:00:00.000z","window":[{"end":"2015-10-21T03:00:00.000z","start":"2015-10-20T20:00:00.000z"}]},"completedAt":"2015-10-20T21:43:29.613Z","id":"7a8a2330-773a-11e5-8a46-bdeb028bea46","status":2,"delay":0,"eta":"P0D","arrivalTime":"2015-10-20T21:43:29.613Z"},{"type":"oneway","contact":{"phone":"","name":"819 W WASHINGTON ST"},"task":"61312130-76eb-11e5-8a46-bdeb028bea46","location":{"location":{"lat":32.7497736,"lng":-117.1709266},"country":"USA","zipcode":"92103-0000","state":"CA","city":"SAN DIEGO","addressLine2":"","addressLine1":"819 W WASHINGTON ST","name":"LAMPLIGHTER","id":"612d77b0-76eb-11e5-8a46-bdeb028bea46"},"driver":"53b1aad0-7672-11e5-90d4-3d0281f899fa","props":{"serviceTime":"PT0H11M39S","priority":1,"time":"2015-10-20T12:00:00.000z","window":[{"end":"2015-10-20T17:00:00.000z","start":"2015-10-20T12:00:00.000z"}]},"completedAt":"2015-10-20T15:45:23.417Z","id":"7ce55140-773a-11e5-8a46-bdeb028bea46","status":2,"delay":0,"eta":"P0D","arrivalTime":"2015-10-20T15:45:23.417Z"},{"type":"oneway","contact":{"phone":"","name":"3701 INDIA ST"},"task":"61030c50-76eb-11e5-8a46-bdeb028bea46","location":{"location":{"lat":32.742674,"lng":-117.1803782},"country":"USA","zipcode":"92103-0000","state":"CA","city":"SAN DIEGO","addressLine2":"","addressLine1":"3701 INDIA ST","name":"SHAKESPEARE PUB & GRILL","id":"60faf600-76eb-11e5-8a46-bdeb028bea46"},"driver":"53b1aad0-7672-11e5-90d4-3d0281f899fa","props":{"serviceTime":"PT0H12M11S","priority":1,"time":"2015-10-20T15:00:00.000z","window":[{"end":"2015-10-20T17:00:00.000z","start":"2015-10-20T15:00:00.000z"}]},"completedAt":"2015-10-20T15:26:27.370Z","id":"7d273c40-773a-11e5-8a46-bdeb028bea46","status":2,"delay":0,"eta":"P0D","arrivalTime":"2015-10-20T15:26:27.370Z"}]}
